{
  "version": 0.6,
  "generator": "Overpass API 0.7.55.7 8b86ff77",
  "osm3s": {
    "timestamp_osm_base": "2019-12-10T04:25:02Z",
    "timestamp_areas_base": "2019-12-10T03:23:02Z",
    "copyright": "The data included in this document is from www.openstreetmap.org. The data is made available under ODbL."
  },
  "elements": [
    {
      "type": "node",
      "id": 281197288,
      "lat": 53.3339771,
      "lon": -6.3785572,
      "tags": {
        "addr:street": "Park West Avenue",
        "name": "Park West and Cherry Orchard",
        "name:ga": "Páirc an Iarthair agus Gort na Silíní",
        "network": "Dublin Commuter",
        "operator": "Irish Rail",
        "public_transport": "station",
        "railway": "station",
        "train": "yes"
      }
    },
    {
      "type": "node",
      "id": 441234698,
      "lat": 53.3726406,
      "lon": -6.2988324,
      "tags": {
        "addr:street": "Broombridge Road",
        "name": "Broombridge",
        "name:en": "Broombridge",
        "name:ga": "Stáisiún Dhroichead Broome",
        "network": "Dublin Commuter",
        "operator": "Irish Rail",
        "phone": "+353 1 8366222 or 1850 366 222",
        "public_transport": "station",
        "railway": "station",
        "start_date": "1990",
        "website": "http://www.irishrail.ie/travel-information/broombridge",
        "wheelchair": "limited",
        "wikidata": "Q3969133",
        "wikipedia": "en:Broombridge railway station"
      }
    },
    {
      "type": "node",
      "id": 616201547,
      "lat": 53.3753554,
      "lon": -6.3323806,
      "tags": {
        "addr:city": "Dublin",
        "addr:postal_district": "D15",
        "addr:street": "Ashtown Road",
        "name": "Ashtown",
        "name:ga": "Baile an Áisigh",
        "network": "Dublin Commuter",
        "operator": "Irish Rail",
        "public_transport": "station",
        "railway": "station",
        "train": "yes",
        "website": "http://www.irishrail.ie/travel-information/Ashtown",
        "wikidata": "Q3968919",
        "wikipedia": "en:Ashtown railway station"
      }
    },
    {
      "type": "node",
      "id": 3632162138,
      "lat": 53.3516967,
      "lon": -6.2489307,
      "tags": {
        "addr:postcode": "D01 V6V6",
        "addr:street": "Amiens Street",
        "loc_name": "Connolly Station",
        "name": "Dublin Connolly",
        "name:en": "Dublin Connolly",
        "name:ga": "Baile Átha Cliath Chonghaile",
        "network": "Enterprise;InterCity;Dublin Commuter;DART",
        "old_name": "Dublin Amiens Street",
        "operator": "Irish Rail",
        "phone": "+353-1-7032358",
        "public_transport": "station",
        "railway": "station",
        "ref": "100",
        "start_date": "1844",
        "train": "yes",
        "website": "http://www.irishrail.ie/travel-information/dublin-connolly",
        "wheelchair": "limited",
        "wikidata": "Q2543742",
        "wikipedia": "en:Dublin Connolly railway station",
        "year_built": "1844"
      }
    },
    {
      "type": "node",
      "id": 4658377140,
      "lat": 53.3450332,
      "lon": -6.1961662,
      "tags": {
        "amenity": "ferry_terminal",
        "ferry": "yes",
        "public_transport": "station"
      }
    },
    {
      "type": "node",
      "id": 5403851296,
      "lat": 53.3629491,
      "lon": -6.2272787,
      "tags": {
        "addr:street": "Clontarf Road",
        "name": "Clontarf Road",
        "name:en": "Clontarf Road",
        "name:ga": "Bóthar Chluain Tarbh",
        "network": "DART",
        "operator": "Irish Rail",
        "public_transport": "station",
        "railway": "station",
        "train": "yes",
        "wheelchair": "yes",
        "wikidata": "Q2979578",
        "wikipedia": "en:Clontarf Road railway station"
      }
    },
    {
      "type": "node",
      "id": 5403871877,
      "lat": 53.3509039,
      "lon": -6.2393672,
      "tags": {
        "addr:city": "Dublin",
        "addr:street": "Sheriff Street Upper",
        "name": "Docklands",
        "name:en": "Docklands",
        "name:ga": "Dugthailte",
        "network": "Dublin Commuter",
        "opening_hours": "Mo-Fr 07:00-10:00, 15:00-19:00",
        "operator": "Irish Rail",
        "phone": "+353 1 8286380",
        "platforms": "2",
        "public_transport": "station",
        "railway": "station",
        "train": "yes",
        "website": "http://www.irishrail.ie/travel-information/docklands",
        "wheelchair": "yes",
        "wikidata": "Q3968799",
        "wikipedia": "en:Docklands railway station"
      }
    },
    {
      "type": "node",
      "id": 5403904825,
      "lat": 53.3783621,
      "lon": -6.1924014,
      "tags": {
        "name": "Harmonstown",
        "name:en": "Harmonstown",
        "name:ga": "Baile Hearman",
        "network": "DART",
        "operator": "Irish Rail",
        "public_transport": "station",
        "railway": "station",
        "train": "yes"
      }
    },
    {
      "type": "node",
      "id": 5519210321,
      "lat": 53.3815986,
      "lon": -6.1761795,
      "tags": {
        "name": "Raheny",
        "name:en": "Raheny",
        "name:ga": "Ráth Eanaigh",
        "network": "DART",
        "operator": "Irish Rail",
        "public_transport": "station",
        "railway": "station",
        "train": "yes"
      }
    },
    {
      "type": "node",
      "id": 5519213828,
      "lat": 53.3872797,
      "lon": -6.1614803,
      "tags": {
        "addr:street": "Briarfield Road",
        "name": "Kilbarrack",
        "name:en": "Kilbarrack",
        "name:ga": "Cill Bharrog",
        "network": "DART",
        "operator": "Irish Rail",
        "public_transport": "station",
        "railway": "station",
        "train": "yes",
        "wheelchair": "yes"
      }
    },
    {
      "type": "node",
      "id": 6278472697,
      "lat": 53.3631246,
      "lon": -6.2589835,
      "tags": {
        "name": "Drumcondra",
        "operator": "Irish Rail",
        "public_transport": "station",
        "railway": "station",
        "train": "yes"
      }
    },
    {
      "type": "node",
      "id": 6854406241,
      "lat": 53.3463091,
      "lon": -6.2948415,
      "tags": {
        "addr:city": "Dublin 8",
        "addr:street": "Saint John's Road West",
        "name": "Dublin Heuston",
        "name:en": "Dublin Heuston",
        "name:ga": "Baile Átha Cliath Heuston",
        "network": "InterCity;Dublin Commuter",
        "old_name": "Dublin Kingsbridge",
        "operator": "Irish Rail",
        "passenger_information_display": "yes",
        "phone": "+353 1 7032132",
        "platforms": "9",
        "public_transport": "station",
        "railway": "station",
        "start_date": "1846",
        "train": "yes",
        "website": "http://www.irishrail.ie/travel-information/dublin-heuston",
        "wheelchair": "yes",
        "wikidata": "Q2377845",
        "wikipedia": "en:Dublin Heuston railway station"
      }
    },
    {
      "type": "way",
      "id": 48894059,
      "nodes": [
        620409509,
        620409513,
        4046026573,
        4046026574,
        4046026572,
        3175765169,
        620409521,
        904504695,
        4046986769,
        3175765173,
        3175765177,
        620409536,
        4046986773,
        4046026576,
        4046026575,
        620409509
      ],
      "tags": {
        "addr:city": "Dublin",
        "addr:housename": "Grand Canal Dock station",
        "addr:street": "Barrow Street",
        "alt_name": "Barrow Street",
        "building": "train_station",
        "building:levels": "2",
        "layer": "1",
        "name": "Grand Canal Dock",
        "name:ga": "Dug Na Canálach Móire",
        "network": "Dublin Commuter;DART",
        "operator": "Irish Rail",
        "public_transport": "station",
        "railway": "station",
        "train": "yes",
        "wheelchair": "yes",
        "wikidata": "Q3113542"
      }
    },
    {
      "type": "way",
      "id": 60904698,
      "nodes": [
        762311934,
        6320069263,
        762311936,
        762311938,
        764526965,
        762311940,
        762311934
      ],
      "tags": {
        "amenity": "ferry_terminal",
        "cargo": "vehicle",
        "ferry": "yes",
        "name": "Terminal 3",
        "operator": "P&O Irish Sea",
        "public_transport": "station"
      }
    },
    {
      "type": "way",
      "id": 318097724,
      "nodes": [
        249634373,
        3454795346,
        2377764791,
        2377764788,
        2580628825,
        3454795345,
        1134818202,
        249634382,
        249634381,
        1134818250,
        5333866134,
        5333866138,
        5333866139,
        5333866140,
        5333866135,
        5333866141,
        5333866137,
        5333866136,
        5333866128,
        1134818219,
        249634375,
        249634374,
        1134818243,
        2580628826,
        249634373
      ],
      "tags": {
        "addr:street": "Store Street",
        "amenity": "bus_station",
        "building": "transportation",
        "building:levels": "4",
        "bus": "yes",
        "name": "Busáras",
        "operator": "Bus Éireann",
        "public_transport": "station",
        "wheelchair": "yes"
      }
    },
    {
      "type": "way",
      "id": 553238080,
      "nodes": [
        5676385570,
        3138939667,
        3138939659,
        5676393762,
        5676385557,
        5676385558,
        5676385559,
        5676385560,
        5676385561,
        5676385562,
        4810765186,
        4810765185,
        5676385567,
        5676385563,
        5676385568,
        3138939663,
        3715152690,
        3138939664,
        5676385555,
        3138939665,
        5676385570
      ],
      "tags": {
        "addr:city": "Dublin",
        "addr:street": "Drumcondra Road Lower",
        "name": "Drumcondra",
        "name:ga": "Droim Conrach",
        "network": "InterCity;Dublin Commuter",
        "operator": "Irish Rail",
        "phone": "+353-1-8305311",
        "public_transport": "station",
        "railway": "station",
        "train": "yes",
        "website": "http://www.irishrail.ie/travel-information/drumcondra",
        "wheelchair": "yes",
        "wikidata": "Q634947"
      }
    },
    {
      "type": "way",
      "id": 557508451,
      "nodes": [
        5376849356,
        5376849357,
        5376849358,
        5376849359,
        5376849356
      ],
      "tags": {
        "addr:housenumber": "4",
        "addr:street": "Crampton Quay",
        "amenity": "bus_station",
        "bus": "yes",
        "name": "Irish Citylink",
        "network": "Irish Citylink",
        "note": "Ticket office and seating area.",
        "operator": "Irish Citylink",
        "public_transport": "station"
      }
    },
    {
      "type": "node",
      "id": 5376849356,
      "lat": 53.3460093,
      "lon": -6.2621472
    },
    {
      "type": "node",
      "id": 5376849357,
      "lat": 53.3459893,
      "lon": -6.2622364
    },
    {
      "type": "node",
      "id": 5376849358,
      "lat": 53.3461117,
      "lon": -6.2622983
    },
    {
      "type": "node",
      "id": 5376849359,
      "lat": 53.3461311,
      "lon": -6.2622111
    },
    {
      "type": "node",
      "id": 249634381,
      "lat": 53.3495312,
      "lon": -6.2522912
    },
    {
      "type": "node",
      "id": 1134818250,
      "lat": 53.3495934,
      "lon": -6.2522443
    },
    {
      "type": "node",
      "id": 249634373,
      "lat": 53.3501254,
      "lon": -6.2522455
    },
    {
      "type": "node",
      "id": 249634382,
      "lat": 53.3495953,
      "lon": -6.2525296
    },
    {
      "type": "node",
      "id": 1134818202,
      "lat": 53.3496573,
      "lon": -6.2524828
    },
    {
      "type": "node",
      "id": 2377764788,
      "lat": 53.3499546,
      "lon": -6.2522599
    },
    {
      "type": "node",
      "id": 2377764791,
      "lat": 53.34998,
      "lon": -6.2523552
    },
    {
      "type": "node",
      "id": 2580628825,
      "lat": 53.3498958,
      "lon": -6.2523037
    },
    {
      "type": "node",
      "id": 3454795345,
      "lat": 53.3497771,
      "lon": -6.2523928
    },
    {
      "type": "node",
      "id": 3454795346,
      "lat": 53.3500541,
      "lon": -6.2522993
    },
    {
      "type": "node",
      "id": 5333866134,
      "lat": 53.349662,
      "lon": -6.2521919
    },
    {
      "type": "node",
      "id": 5333866138,
      "lat": 53.3497105,
      "lon": -6.252155
    },
    {
      "type": "node",
      "id": 249634374,
      "lat": 53.3498513,
      "lon": -6.251226
    },
    {
      "type": "node",
      "id": 249634375,
      "lat": 53.3497059,
      "lon": -6.2513358
    },
    {
      "type": "node",
      "id": 1134818219,
      "lat": 53.3497254,
      "lon": -6.2514083
    },
    {
      "type": "node",
      "id": 1134818243,
      "lat": 53.3498718,
      "lon": -6.251302
    },
    {
      "type": "node",
      "id": 2580628826,
      "lat": 53.3500338,
      "lon": -6.2519048
    },
    {
      "type": "node",
      "id": 5333866128,
      "lat": 53.3497641,
      "lon": -6.2515511
    },
    {
      "type": "node",
      "id": 5333866135,
      "lat": 53.3496506,
      "lon": -6.2518855
    },
    {
      "type": "node",
      "id": 5333866136,
      "lat": 53.349788,
      "lon": -6.2516392
    },
    {
      "type": "node",
      "id": 5333866137,
      "lat": 53.3496674,
      "lon": -6.2518331
    },
    {
      "type": "node",
      "id": 5333866139,
      "lat": 53.3496528,
      "lon": -6.2519424
    },
    {
      "type": "node",
      "id": 5333866140,
      "lat": 53.34965,
      "lon": -6.2519106
    },
    {
      "type": "node",
      "id": 5333866141,
      "lat": 53.3496588,
      "lon": -6.2518556
    },
    {
      "type": "node",
      "id": 3138939663,
      "lat": 53.363671,
      "lon": -6.2611305
    },
    {
      "type": "node",
      "id": 3138939664,
      "lat": 53.3632484,
      "lon": -6.2596217
    },
    {
      "type": "node",
      "id": 3138939665,
      "lat": 53.3629919,
      "lon": -6.2588063
    },
    {
      "type": "node",
      "id": 3715152690,
      "lat": 53.3636286,
      "lon": -6.2609792
    },
    {
      "type": "node",
      "id": 4810765185,
      "lat": 53.3636219,
      "lon": -6.2604124
    },
    {
      "type": "node",
      "id": 4810765186,
      "lat": 53.3634827,
      "lon": -6.2599186
    },
    {
      "type": "node",
      "id": 5676385555,
      "lat": 53.3632261,
      "lon": -6.2596372
    },
    {
      "type": "node",
      "id": 5676385560,
      "lat": 53.3632122,
      "lon": -6.2589077
    },
    {
      "type": "node",
      "id": 5676385561,
      "lat": 53.3634379,
      "lon": -6.2596936
    },
    {
      "type": "node",
      "id": 5676385562,
      "lat": 53.3634387,
      "lon": -6.2597665
    },
    {
      "type": "node",
      "id": 5676385563,
      "lat": 53.3638068,
      "lon": -6.2611127
    },
    {
      "type": "node",
      "id": 5676385567,
      "lat": 53.36379,
      "lon": -6.2610481
    },
    {
      "type": "node",
      "id": 5676385568,
      "lat": 53.3636879,
      "lon": -6.2611976
    },
    {
      "type": "node",
      "id": 3138939659,
      "lat": 53.3629811,
      "lon": -6.2585799
    },
    {
      "type": "node",
      "id": 3138939667,
      "lat": 53.3629643,
      "lon": -6.258599
    },
    {
      "type": "node",
      "id": 5676385557,
      "lat": 53.3631818,
      "lon": -6.2583833
    },
    {
      "type": "node",
      "id": 5676385558,
      "lat": 53.3632506,
      "lon": -6.2586129
    },
    {
      "type": "node",
      "id": 5676385559,
      "lat": 53.3631978,
      "lon": -6.2586719
    },
    {
      "type": "node",
      "id": 5676385570,
      "lat": 53.3629409,
      "lon": -6.2586204
    },
    {
      "type": "node",
      "id": 5676393762,
      "lat": 53.3630376,
      "lon": -6.2585245
    },
    {
      "type": "node",
      "id": 620409509,
      "lat": 53.3395766,
      "lon": -6.237223
    },
    {
      "type": "node",
      "id": 620409513,
      "lat": 53.3395599,
      "lon": -6.2372436
    },
    {
      "type": "node",
      "id": 620409521,
      "lat": 53.3395669,
      "lon": -6.2374558
    },
    {
      "type": "node",
      "id": 620409536,
      "lat": 53.3396679,
      "lon": -6.2375349
    },
    {
      "type": "node",
      "id": 904504695,
      "lat": 53.3395738,
      "lon": -6.2374701
    },
    {
      "type": "node",
      "id": 3175765169,
      "lat": 53.3395792,
      "lon": -6.2374401
    },
    {
      "type": "node",
      "id": 3175765173,
      "lat": 53.3396281,
      "lon": -6.2375837
    },
    {
      "type": "node",
      "id": 3175765177,
      "lat": 53.3396422,
      "lon": -6.237565
    },
    {
      "type": "node",
      "id": 4046026572,
      "lat": 53.3394624,
      "lon": -6.237185
    },
    {
      "type": "node",
      "id": 4046026573,
      "lat": 53.3395428,
      "lon": -6.2372655
    },
    {
      "type": "node",
      "id": 4046026574,
      "lat": 53.3394899,
      "lon": -6.2371498
    },
    {
      "type": "node",
      "id": 4046026575,
      "lat": 53.3396644,
      "lon": -6.2374233
    },
    {
      "type": "node",
      "id": 4046026576,
      "lat": 53.3396349,
      "lon": -6.2374596
    },
    {
      "type": "node",
      "id": 4046986769,
      "lat": 53.3396182,
      "lon": -6.2375628
    },
    {
      "type": "node",
      "id": 4046986773,
      "lat": 53.3396578,
      "lon": -6.2375118
    },
    {
      "type": "node",
      "id": 762311934,
      "lat": 53.3472391,
      "lon": -6.2265211
    },
    {
      "type": "node",
      "id": 762311936,
      "lat": 53.34695,
      "lon": -6.2265643
    },
    {
      "type": "node",
      "id": 762311938,
      "lat": 53.3469343,
      "lon": -6.2262698
    },
    {
      "type": "node",
      "id": 762311940,
      "lat": 53.3472234,
      "lon": -6.2262265
    },
    {
      "type": "node",
      "id": 764526965,
      "lat": 53.3470886,
      "lon": -6.2262467
    },
    {
      "type": "node",
      "id": 6320069263,
      "lat": 53.3471216,
      "lon": -6.2265387
    }
  ]
}